{
   "plus_code" : {
      "compound_code" : "XWPM+J5J Altındağ/Ankara, Turkey",
      "global_code" : "8GFJXWPM+J5J"
   },
   "results" : [
      {
         "address_components" : [
            {
               "long_name" : "XWPM+J5",
               "short_name" : "XWPM+J5",
               "types" : [ "plus_code" ]
            },
            {
               "long_name" : "Altındağ",
               "short_name" : "Altındağ",
               "types" : [ "administrative_area_level_2", "political" ]
            },
            {
               "long_name" : "Ankara",
               "short_name" : "Ankara",
               "types" : [ "administrative_area_level_1", "political" ]
            },
            {
               "long_name" : "Turkey",
               "short_name" : "TR",
               "types" : [ "country", "political" ]
            }
         ],
         "formatted_address" : "XWPM+J5 Altındağ/Ankara, Turkey",
         "geometry" : {
            "bounds" : {
               "northeast" : {
                  "lat" : 39.986625,
                  "lng" : 32.933
               },
               "southwest" : {
                  "lat" : 39.9865,
                  "lng" : 32.932875
               }
            },
            "location" : {
               "lat" : 39.9865906,
               "lng" : 32.9328918
            },
            "location_type" : "GEOMETRIC_CENTER",
            "viewport" : {
               "northeast" : {
                  "lat" : 39.9879114802915,
                  "lng" : 32.9342864802915
               },
               "southwest" : {
                  "lat" : 39.9852135197085,
                  "lng" : 32.9315885197085
               }
            }
         },
         "place_id" : "GhIJQMXMmUj-Q0ARcdqd_2h3QEA",
         "plus_code" : {
            "compound_code" : "XWPM+J5 Altındağ/Ankara, Turkey",
            "global_code" : "8GFJXWPM+J5"
         },
         "types" : [ "plus_code" ]
      },
      {
         "address_components" : [
            {
               "long_name" : "95",
               "short_name" : "95",
               "types" : [ "street_number" ]
            },
            {
               "long_name" : "1048. Caddesi",
               "short_name" : "1048. Cd.",
               "types" : [ "route" ]
            },
            {
               "long_name" : "Feridun Çelik",
               "short_name" : "Feridun Çelik",
               "types" : [ "administrative_area_level_4", "political" ]
            },
            {
               "long_name" : "Altındağ",
               "short_name" : "Altındağ",
               "types" : [ "administrative_area_level_2", "political" ]
            },
            {
               "long_name" : "Ankara",
               "short_name" : "Ankara",
               "types" : [ "administrative_area_level_1", "political" ]
            },
            {
               "long_name" : "Turkey",
               "short_name" : "TR",
               "types" : [ "country", "political" ]
            },
            {
               "long_name" : "06360",
               "short_name" : "06360",
               "types" : [ "postal_code" ]
            }
         ],
         "formatted_address" : "Feridun Çelik, 1048. Cd. No:95, 06360 Altındağ/Ankara, Turkey",
         "geometry" : {
            "location" : {
               "lat" : 39.98495399999999,
               "lng" : 32.933209
            },
            "location_type" : "ROOFTOP",
            "viewport" : {
               "northeast" : {
                  "lat" : 39.9863029802915,
                  "lng" : 32.93455798029149
               },
               "southwest" : {
                  "lat" : 39.9836050197085,
                  "lng" : 32.9318600197085
               }
            }
         },
         "place_id" : "ChIJr-mAF-ZS0xQRELp6wCfeVZw",
         "plus_code" : {
            "compound_code" : "XWMM+X7 Altındağ/Ankara, Turkey",
            "global_code" : "8GFJXWMM+X7"
         },
         "types" : [ "street_address" ]
      },
      {
         "address_components" : [
            {
               "long_name" : "1048. Caddesi",
               "short_name" : "1048. Cd.",
               "types" : [ "route" ]
            },
            {
               "long_name" : "Başpınar",
               "short_name" : "Başpınar",
               "types" : [ "administrative_area_level_4", "political" ]
            },
            {
               "long_name" : "Altındağ",
               "short_name" : "Altındağ",
               "types" : [ "administrative_area_level_2", "political" ]
            },
            {
               "long_name" : "Ankara",
               "short_name" : "Ankara",
               "types" : [ "administrative_area_level_1", "political" ]
            },
            {
               "long_name" : "Turkey",
               "short_name" : "TR",
               "types" : [ "country", "political" ]
            },
            {
               "long_name" : "06360",
               "short_name" : "06360",
               "types" : [ "postal_code" ]
            }
         ],
         "formatted_address" : "Başpınar, 1048. Cd., 06360 Altındağ/Ankara, Turkey",
         "geometry" : {
            "bounds" : {
               "northeast" : {
                  "lat" : 39.9849552,
                  "lng" : 32.9323723
               },
               "southwest" : {
                  "lat" : 39.9844708,
                  "lng" : 32.9309926
               }
            },
            "location" : {
               "lat" : 39.98468769999999,
               "lng" : 32.9316682
            },
            "location_type" : "GEOMETRIC_CENTER",
            "viewport" : {
               "northeast" : {
                  "lat" : 39.9860619802915,
                  "lng" : 32.9330314302915
               },
               "southwest" : {
                  "lat" : 39.9833640197085,
                  "lng" : 32.9303334697085
               }
            }
         },
         "place_id" : "ChIJQysnsuhS0xQRSX9T1d7bqTM",
         "types" : [ "route" ]
      },
      {
         "address_components" : [
            {
               "long_name" : "Feridun Çelik",
               "short_name" : "Feridun Çelik",
               "types" : [ "administrative_area_level_4", "political" ]
            },
            {
               "long_name" : "Altındağ",
               "short_name" : "Altındağ",
               "types" : [ "administrative_area_level_2", "political" ]
            },
            {
               "long_name" : "Ankara",
               "short_name" : "Ankara",
               "types" : [ "administrative_area_level_1", "political" ]
            },
            {
               "long_name" : "Turkey",
               "short_name" : "TR",
               "types" : [ "country", "political" ]
            },
            {
               "long_name" : "06360",
               "short_name" : "06360",
               "types" : [ "postal_code" ]
            }
         ],
         "formatted_address" : "Feridun Çelik, 06360 Altındağ/Ankara, Turkey",
         "geometry" : {
            "bounds" : {
               "northeast" : {
                  "lat" : 40.004693,
                  "lng" : 32.95241900000001
               },
               "southwest" : {
                  "lat" : 39.968902,
                  "lng" : 32.9232211
               }
            },
            "location" : {
               "lat" : 39.9883574,
               "lng" : 32.9409494
            },
            "location_type" : "APPROXIMATE",
            "viewport" : {
               "northeast" : {
                  "lat" : 40.004693,
                  "lng" : 32.95241900000001
               },
               "southwest" : {
                  "lat" : 39.968902,
                  "lng" : 32.9232211
               }
            }
         },
         "place_id" : "ChIJiQ7rzeZS0xQRvD999vzNICA",
         "types" : [ "administrative_area_level_4", "political" ]
      },
      {
         "address_components" : [
            {
               "long_name" : "06360",
               "short_name" : "06360",
               "types" : [ "postal_code" ]
            },
            {
               "long_name" : "Feridun Çelik",
               "short_name" : "Feridun Çelik",
               "types" : [ "administrative_area_level_4", "political" ]
            },
            {
               "long_name" : "Altındağ",
               "short_name" : "Altındağ",
               "types" : [ "administrative_area_level_2", "political" ]
            },
            {
               "long_name" : "Ankara",
               "short_name" : "Ankara",
               "types" : [ "administrative_area_level_1", "political" ]
            },
            {
               "long_name" : "Turkey",
               "short_name" : "TR",
               "types" : [ "country", "political" ]
            }
         ],
         "formatted_address" : "Feridun Çelik, 06360 Altındağ/Ankara, Turkey",
         "geometry" : {
            "bounds" : {
               "northeast" : {
                  "lat" : 40.004693,
                  "lng" : 32.95241900000001
               },
               "southwest" : {
                  "lat" : 39.968902,
                  "lng" : 32.9232211
               }
            },
            "location" : {
               "lat" : 39.9883574,
               "lng" : 32.9409494
            },
            "location_type" : "APPROXIMATE",
            "viewport" : {
               "northeast" : {
                  "lat" : 40.004693,
                  "lng" : 32.95241900000001
               },
               "southwest" : {
                  "lat" : 39.968902,
                  "lng" : 32.9232211
               }
            }
         },
         "place_id" : "ChIJ5caSzVBS0xQR9IM60qpx6d0",
         "types" : [ "postal_code" ]
      },
      {
         "address_components" : [
            {
               "long_name" : "Altındağ",
               "short_name" : "Altındağ",
               "types" : [ "administrative_area_level_2", "political" ]
            },
            {
               "long_name" : "Ankara",
               "short_name" : "Ankara",
               "types" : [ "administrative_area_level_1", "political" ]
            },
            {
               "long_name" : "Turkey",
               "short_name" : "TR",
               "types" : [ "country", "political" ]
            }
         ],
         "formatted_address" : "Altındağ/Ankara, Turkey",
         "geometry" : {
            "bounds" : {
               "northeast" : {
                  "lat" : 40.0570421,
                  "lng" : 33.1173301
               },
               "southwest" : {
                  "lat" : 39.928408,
                  "lng" : 32.8307209
               }
            },
            "location" : {
               "lat" : 40.0092683,
               "lng" : 32.9833371
            },
            "location_type" : "APPROXIMATE",
            "viewport" : {
               "northeast" : {
                  "lat" : 40.0570421,
                  "lng" : 33.1173301
               },
               "southwest" : {
                  "lat" : 39.928408,
                  "lng" : 32.8307209
               }
            }
         },
         "place_id" : "ChIJFViTEmgHgkARyu6AxEhAUYQ",
         "types" : [ "administrative_area_level_2", "political" ]
      },
      {
         "address_components" : [
            {
               "long_name" : "Ankara",
               "short_name" : "Ankara",
               "types" : [ "administrative_area_level_1", "political" ]
            },
            {
               "long_name" : "Turkey",
               "short_name" : "TR",
               "types" : [ "country", "political" ]
            }
         ],
         "formatted_address" : "Ankara, Turkey",
         "geometry" : {
            "bounds" : {
               "northeast" : {
                  "lat" : 40.756282,
                  "lng" : 33.871969
               },
               "southwest" : {
                  "lat" : 38.6699421,
                  "lng" : 30.8240371
               }
            },
            "location" : {
               "lat" : 39.7805245,
               "lng" : 32.7181375
            },
            "location_type" : "APPROXIMATE",
            "viewport" : {
               "northeast" : {
                  "lat" : 40.756282,
                  "lng" : 33.871969
               },
               "southwest" : {
                  "lat" : 38.6699421,
                  "lng" : 30.8240371
               }
            }
         },
         "place_id" : "ChIJ2UbubYMC0xQRePrg-9apYgY",
         "types" : [ "administrative_area_level_1", "political" ]
      },
      {
         "address_components" : [
            {
               "long_name" : "Turkey",
               "short_name" : "TR",
               "types" : [ "country", "political" ]
            }
         ],
         "formatted_address" : "Turkey",
         "geometry" : {
            "bounds" : {
               "northeast" : {
                  "lat" : 42.3666999,
                  "lng" : 44.8178449
               },
               "southwest" : {
                  "lat" : 35.808592,
                  "lng" : 25.5377
               }
            },
            "location" : {
               "lat" : 38.963745,
               "lng" : 35.243322
            },
            "location_type" : "APPROXIMATE",
            "viewport" : {
               "northeast" : {
                  "lat" : 42.3666999,
                  "lng" : 44.8178449
               },
               "southwest" : {
                  "lat" : 35.808592,
                  "lng" : 25.5377
               }
            }
         },
         "place_id" : "ChIJcSZPllwVsBQRKl9iKtTb2UA",
         "types" : [ "country", "political" ]
      }
   ],
   "status" : "OK"
}
