{
   "plus_code" : {
      "compound_code" : "WRRG+GVJ Yenimahalle/Ankara, Turkey",
      "global_code" : "8GFJWRRG+GVJ"
   },
   "results" : [
      {
         "address_components" : [
            {
               "long_name" : "Etiler Ordu Evi",
               "short_name" : "Etiler Ordu Evi",
               "types" : [ "establishment", "point_of_interest", "transit_station" ]
            },
            {
               "long_name" : "Emniyet",
               "short_name" : "Emniyet",
               "types" : [ "administrative_area_level_4", "political" ]
            },
            {
               "long_name" : "Yenimahalle",
               "short_name" : "Yenimahalle",
               "types" : [ "administrative_area_level_2", "political" ]
            },
            {
               "long_name" : "Ankara",
               "short_name" : "Ankara",
               "types" : [ "administrative_area_level_1", "political" ]
            },
            {
               "long_name" : "Turkey",
               "short_name" : "TR",
               "types" : [ "country", "political" ]
            },
            {
               "long_name" : "06560",
               "short_name" : "06560",
               "types" : [ "postal_code" ]
            }
         ],
         "formatted_address" : "Emniyet, Etiler Ordu Evi, 06560 Yenimahalle/Ankara, Turkey",
         "geometry" : {
            "location" : {
               "lat" : 39.9414152,
               "lng" : 32.8270778
            },
            "location_type" : "GEOMETRIC_CENTER",
            "viewport" : {
               "northeast" : {
                  "lat" : 39.9427641802915,
                  "lng" : 32.82842678029149
               },
               "southwest" : {
                  "lat" : 39.94006621970851,
                  "lng" : 32.82572881970849
               }
            }
         },
         "place_id" : "ChIJLUfMDcNO0xQRtVFHzVJ63Tc",
         "plus_code" : {
            "compound_code" : "WRRG+HR Yenimahalle/Ankara, Turkey",
            "global_code" : "8GFJWRRG+HR"
         },
         "types" : [ "establishment", "point_of_interest", "transit_station" ]
      },
      {
         "address_components" : [
            {
               "long_name" : "Mevlana Bulvarı",
               "short_name" : "D200",
               "types" : [ "route" ]
            },
            {
               "long_name" : "Emniyet",
               "short_name" : "Emniyet",
               "types" : [ "administrative_area_level_4", "political" ]
            },
            {
               "long_name" : "Yenimahalle",
               "short_name" : "Yenimahalle",
               "types" : [ "administrative_area_level_2", "political" ]
            },
            {
               "long_name" : "Ankara",
               "short_name" : "Ankara",
               "types" : [ "administrative_area_level_1", "political" ]
            },
            {
               "long_name" : "Turkey",
               "short_name" : "TR",
               "types" : [ "country", "political" ]
            },
            {
               "long_name" : "06560",
               "short_name" : "06560",
               "types" : [ "postal_code" ]
            }
         ],
         "formatted_address" : "Emniyet, D200, 06560 Yenimahalle/Ankara, Turkey",
         "geometry" : {
            "bounds" : {
               "northeast" : {
                  "lat" : 39.9415874,
                  "lng" : 32.8274
               },
               "southwest" : {
                  "lat" : 39.94113189999999,
                  "lng" : 32.8270458
               }
            },
            "location" : {
               "lat" : 39.9413597,
               "lng" : 32.8272229
            },
            "location_type" : "GEOMETRIC_CENTER",
            "viewport" : {
               "northeast" : {
                  "lat" : 39.9427086302915,
                  "lng" : 32.8285718802915
               },
               "southwest" : {
                  "lat" : 39.9400106697085,
                  "lng" : 32.8258739197085
               }
            }
         },
         "place_id" : "ChIJOQ1fDsNO0xQRvuUjIyd4obY",
         "types" : [ "route" ]
      },
      {
         "address_components" : [
            {
               "long_name" : "WRRG+GV",
               "short_name" : "WRRG+GV",
               "types" : [ "plus_code" ]
            },
            {
               "long_name" : "Yenimahalle",
               "short_name" : "Yenimahalle",
               "types" : [ "administrative_area_level_2", "political" ]
            },
            {
               "long_name" : "Ankara",
               "short_name" : "Ankara",
               "types" : [ "administrative_area_level_1", "political" ]
            },
            {
               "long_name" : "Turkey",
               "short_name" : "TR",
               "types" : [ "country", "political" ]
            }
         ],
         "formatted_address" : "WRRG+GV Yenimahalle/Ankara, Turkey",
         "geometry" : {
            "bounds" : {
               "northeast" : {
                  "lat" : 39.941375,
                  "lng" : 32.82725
               },
               "southwest" : {
                  "lat" : 39.94125,
                  "lng" : 32.827125
               }
            },
            "location" : {
               "lat" : 39.9413307,
               "lng" : 32.8271484
            },
            "location_type" : "GEOMETRIC_CENTER",
            "viewport" : {
               "northeast" : {
                  "lat" : 39.94266148029149,
                  "lng" : 32.82853648029149
               },
               "southwest" : {
                  "lat" : 39.9399635197085,
                  "lng" : 32.82583851970849
               }
            }
         },
         "place_id" : "GhIJQ5w9hn34Q0ARKHiv_99pQEA",
         "plus_code" : {
            "compound_code" : "WRRG+GV Yenimahalle/Ankara, Turkey",
            "global_code" : "8GFJWRRG+GV"
         },
         "types" : [ "plus_code" ]
      },
      {
         "address_components" : [
            {
               "long_name" : "06560",
               "short_name" : "06560",
               "types" : [ "postal_code" ]
            },
            {
               "long_name" : "Emniyet",
               "short_name" : "Emniyet",
               "types" : [ "administrative_area_level_4", "political" ]
            },
            {
               "long_name" : "Yenimahalle",
               "short_name" : "Yenimahalle",
               "types" : [ "administrative_area_level_2", "political" ]
            },
            {
               "long_name" : "Ankara",
               "short_name" : "Ankara",
               "types" : [ "administrative_area_level_1", "political" ]
            },
            {
               "long_name" : "Turkey",
               "short_name" : "TR",
               "types" : [ "country", "political" ]
            }
         ],
         "formatted_address" : "Emniyet, 06560 Yenimahalle/Ankara, Turkey",
         "geometry" : {
            "bounds" : {
               "northeast" : {
                  "lat" : 39.9459799,
                  "lng" : 32.840599
               },
               "southwest" : {
                  "lat" : 39.924976,
                  "lng" : 32.7959371
               }
            },
            "location" : {
               "lat" : 39.9358855,
               "lng" : 32.8169122
            },
            "location_type" : "APPROXIMATE",
            "viewport" : {
               "northeast" : {
                  "lat" : 39.9459799,
                  "lng" : 32.840599
               },
               "southwest" : {
                  "lat" : 39.924976,
                  "lng" : 32.7959371
               }
            }
         },
         "place_id" : "ChIJEbWlCtdO0xQRI4KFRS181nI",
         "types" : [ "postal_code" ]
      },
      {
         "address_components" : [
            {
               "long_name" : "Emniyet",
               "short_name" : "Emniyet",
               "types" : [ "administrative_area_level_4", "political" ]
            },
            {
               "long_name" : "Yenimahalle",
               "short_name" : "Yenimahalle",
               "types" : [ "administrative_area_level_2", "political" ]
            },
            {
               "long_name" : "Ankara",
               "short_name" : "Ankara",
               "types" : [ "administrative_area_level_1", "political" ]
            },
            {
               "long_name" : "Turkey",
               "short_name" : "TR",
               "types" : [ "country", "political" ]
            }
         ],
         "formatted_address" : "Emniyet, Yenimahalle/Ankara, Turkey",
         "geometry" : {
            "bounds" : {
               "northeast" : {
                  "lat" : 39.9459799,
                  "lng" : 32.840599
               },
               "southwest" : {
                  "lat" : 39.9255751,
                  "lng" : 32.796003
               }
            },
            "location" : {
               "lat" : 39.9358855,
               "lng" : 32.8169122
            },
            "location_type" : "APPROXIMATE",
            "viewport" : {
               "northeast" : {
                  "lat" : 39.9459799,
                  "lng" : 32.840599
               },
               "southwest" : {
                  "lat" : 39.9255751,
                  "lng" : 32.796003
               }
            }
         },
         "place_id" : "ChIJN5mxDNdO0xQR6ElV6Xcu24I",
         "types" : [ "administrative_area_level_4", "political" ]
      },
      {
         "address_components" : [
            {
               "long_name" : "Yenimahalle",
               "short_name" : "Yenimahalle",
               "types" : [ "administrative_area_level_2", "political" ]
            },
            {
               "long_name" : "Ankara",
               "short_name" : "Ankara",
               "types" : [ "administrative_area_level_1", "political" ]
            },
            {
               "long_name" : "Turkey",
               "short_name" : "TR",
               "types" : [ "country", "political" ]
            }
         ],
         "formatted_address" : "Yenimahalle/Ankara, Turkey",
         "geometry" : {
            "bounds" : {
               "northeast" : {
                  "lat" : 40.104982,
                  "lng" : 32.84711910000001
               },
               "southwest" : {
                  "lat" : 39.91101,
                  "lng" : 32.5632019
               }
            },
            "location" : {
               "lat" : 39.9905034,
               "lng" : 32.6955445
            },
            "location_type" : "APPROXIMATE",
            "viewport" : {
               "northeast" : {
                  "lat" : 40.104982,
                  "lng" : 32.84711910000001
               },
               "southwest" : {
                  "lat" : 39.91101,
                  "lng" : 32.5632019
               }
            }
         },
         "place_id" : "ChIJNSxNGK850xQRj1dOXZvKxmg",
         "types" : [ "administrative_area_level_2", "political" ]
      },
      {
         "address_components" : [
            {
               "long_name" : "Ankara",
               "short_name" : "Ankara",
               "types" : [ "locality", "political" ]
            },
            {
               "long_name" : "Ankara",
               "short_name" : "Ankara",
               "types" : [ "administrative_area_level_1", "political" ]
            },
            {
               "long_name" : "Turkey",
               "short_name" : "TR",
               "types" : [ "country", "political" ]
            }
         ],
         "formatted_address" : "Ankara, Turkey",
         "geometry" : {
            "bounds" : {
               "northeast" : {
                  "lat" : 40.076332,
                  "lng" : 33.007056
               },
               "southwest" : {
                  "lat" : 39.7304211,
                  "lng" : 32.5184735
               }
            },
            "location" : {
               "lat" : 39.9333635,
               "lng" : 32.8597419
            },
            "location_type" : "APPROXIMATE",
            "viewport" : {
               "northeast" : {
                  "lat" : 40.076332,
                  "lng" : 33.007056
               },
               "southwest" : {
                  "lat" : 39.7304211,
                  "lng" : 32.5184735
               }
            }
         },
         "place_id" : "ChIJsS1zINVH0xQRjSuEwLBX3As",
         "types" : [ "locality", "political" ]
      },
      {
         "address_components" : [
            {
               "long_name" : "Ankara",
               "short_name" : "Ankara",
               "types" : [ "administrative_area_level_1", "political" ]
            },
            {
               "long_name" : "Turkey",
               "short_name" : "TR",
               "types" : [ "country", "political" ]
            }
         ],
         "formatted_address" : "Ankara, Turkey",
         "geometry" : {
            "bounds" : {
               "northeast" : {
                  "lat" : 40.756282,
                  "lng" : 33.871969
               },
               "southwest" : {
                  "lat" : 38.6699421,
                  "lng" : 30.8240371
               }
            },
            "location" : {
               "lat" : 39.7805245,
               "lng" : 32.7181375
            },
            "location_type" : "APPROXIMATE",
            "viewport" : {
               "northeast" : {
                  "lat" : 40.756282,
                  "lng" : 33.871969
               },
               "southwest" : {
                  "lat" : 38.6699421,
                  "lng" : 30.8240371
               }
            }
         },
         "place_id" : "ChIJ2UbubYMC0xQRePrg-9apYgY",
         "types" : [ "administrative_area_level_1", "political" ]
      },
      {
         "address_components" : [
            {
               "long_name" : "Turkey",
               "short_name" : "TR",
               "types" : [ "country", "political" ]
            }
         ],
         "formatted_address" : "Turkey",
         "geometry" : {
            "bounds" : {
               "northeast" : {
                  "lat" : 42.3666999,
                  "lng" : 44.8178449
               },
               "southwest" : {
                  "lat" : 35.808592,
                  "lng" : 25.5377
               }
            },
            "location" : {
               "lat" : 38.963745,
               "lng" : 35.243322
            },
            "location_type" : "APPROXIMATE",
            "viewport" : {
               "northeast" : {
                  "lat" : 42.3666999,
                  "lng" : 44.8178449
               },
               "southwest" : {
                  "lat" : 35.808592,
                  "lng" : 25.5377
               }
            }
         },
         "place_id" : "ChIJcSZPllwVsBQRKl9iKtTb2UA",
         "types" : [ "country", "political" ]
      }
   ],
   "status" : "OK"
}
